{
  "points": [
    {
      "longitude": -117.33378013520932,
      "latitude": 33.95723222749059,
      "z": 30,
      "size": 100,
      "model": "/BuildingModel/models/a_chinese_worker.glb",
      "name": "Abdulrahman Mohammed",
      "age": 30,
      "company": "Petromin",
      "jobId": "wa25001001"
    },
    {
      "longitude": -117.3318970628486,
      "latitude": 33.95643416897167,
      "z": 30,
      "size": 100,
      "model": "/BuildingModel/models/a_chinese_worker.glb",
      "name": "Ali Hassan",
      "age": 28,
      "company": "Modon",
      "jobId": "wa25001002"
    },
    {
      "longitude": -117.33492192120501,
      "latitude": 33.95970269302978,
      "z": 30,
      "size": 100,
      "model": "/BuildingModel/models/a_chinese_worker.glb",
      "name": "Ahmad Khalid",
      "age": 35,
      "company": "Petro Rabigh",
      "jobId": "wa25001003"
    },
    {
      "longitude": -117.33451206057174,
      "latitude": 33.9577574370671,
      "z": 30,
      "size": 100,
      "model": "/BuildingModel/models/a_chinese_worker.glb",
      "name": "Yasin Mustafa",
      "age": 32,
      "company": "Ma'aden",
      "jobId": "wa25001004"
    },
    {
      "longitude": -117.33097719888478,
      "latitude": 33.95769290332852,
      "z": 30,
      "size": 100,
      "model": "/BuildingModel/models/a_chinese_worker.glb",
      "name": "Rami Ibrahim",
      "age": 29,
      "company": "SEC-Saudi Electricity",
      "jobId": "wa25001005"
    },
    {
      "longitude": -117.33358627765415,
      "latitude": 33.958438514707765,
      "z": 420,
      "size": 100,
      "model": "/BuildingModel/models/a_chinese_worker.glb",
      "name": "Saleem Yousef",
      "age": 40,
      "company": "Bahri",
      "jobId": "wa25001006"
    },
    {
      "longitude": -117.32851431602376,
      "latitude": 33.95402116096069,
      "z": 30,
      "size": 100,
      "model": "/BuildingModel/models/a_chinese_worker.glb",
      "name": "Abdulrahim Issa",
      "age": 45,
      "company": "WakeCap",
      "jobId": "wa25001007"
    },
    {
      "longitude": -117.3395341971058,
      "latitude": 33.956127539426916,
      "z": 30,
      "size": 100,
      "model": "/BuildingModel/models/a_chinese_worker.glb",
      "name": "Mohammed Abdulaziz",
      "age": 27,
      "company": "GASCO",
      "jobId": "wa25001008"
    },
    {
      "longitude": -117.33843696441456,
      "latitude": 33.96113573091817,
      "z": 30,
      "size": 100,
      "model": "/BuildingModel/models/a_chinese_worker.glb",
      "name": "Abdulmalek Khalid",
      "age": 38,
      "company": "ADNOC",
      "jobId": "wa25001009"
    },

    {
      "longitude": -117.30161268261674,
      "latitude": 33.95389713044298,
      "z": 70,
      "size": 100,
      "model": "/BuildingModel/models/a_chinese_worker.glb",
      "name": "Hassan Ahmad",
      "age": 27,
      "company": "SABIC",
      "jobId": "wa25001010"
    },
    {
      "longitude": -117.30475361835556,
      "latitude": 33.95302057691177,
      "z": 380,
      "size": 100,
      "model": "/BuildingModel/models/a_chinese_worker.glb",
      "name": "Issa Rami",
      "age": 25,
      "company": "GASCO",
      "jobId": "wa25001011"
    },
    {
      "longitude": -117.3060974570003,
      "latitude": 33.954955538274997,
      "z": 380,
      "size": 100,
      "model": "/BuildingModel/models/a_chinese_worker.glb",
      "name": "Meshari AL_Ghabban",
      "age": 20,
      "company": "WakeCap",
      "jobId": "F-15"
    },
    {
      "longitude": -117.30526278024459,
      "latitude": 33.95816835433608,
      "z": 100,
      "size": 100,
      "model": "/BuildingModel/models/a_chinese_worker.glb",
      "name": "Khalid Rashed",
      "age": 20,
      "company": "Marafiq",
      "jobId": "wa25001012"
    }
  ]
}
